{"51c080d9abd88bfe62869a59":{"sleep":16609,"quality":86,"mood":"Dragging","venue":{"id":"51c080d9abd88bfe62869a59","name":"sweetgreen NoMad","contact":{"phone":"6464498884","formattedPhone":"(646) 449-8884","twitter":"sweetgreen"},"location":{"address":"1164 Broadway","crossStreet":"at W 28th St","lat":40.745668,"lng":-73.988266,"postalCode":"10001","city":"New York","state":"NY","country":"United States","cc":"US"},"categories":[{"id":"4bf58dd8d48988d1bd941735","name":"Salad Place","pluralName":"Salad Shop","shortName":"Salad","icon":{"prefix":"https://foursquare.com/img/categories_v2/food/salad_","suffix":".png"},"primary":true}],"verified":true,"stats":{"checkinsCount":2327,"usersCount":1255,"tipCount":49},"url":"http://sweetgreen.com/menu/","likes":{"count":80,"groups":[{"type":"others","count":80,"items":[]}],"summary":"80 likes"},"like":false,"menu":{"type":"Menu","label":"Menu","anchor":"See menu","url":"https://foursquare.com/v/sweetgreen-nomad/51c080d9abd88bfe62869a59/menu","mobileUrl":"https://foursquare.com/v/51c080d9abd88bfe62869a59/device_menu"},"beenHere":{"count":5,"marked":false}}},"4a0e0f85f964a520bf751fe3":{"sleep":33916,"quality":70,"mood":"Dragging","venue":{"id":"4a0e0f85f964a520bf751fe3","name":"Ace Hotel New York","contact":{"phone":"2126792222","formattedPhone":"(212) 679-2222","twitter":"acehotel"},"location":{"address":"20 W 29th St","crossStreet":"at Broadway","lat":40.74587751338479,"lng":-73.98814227092514,"postalCode":"10001","city":"New York","state":"NY","country":"United States","cc":"US"},"categories":[{"id":"4bf58dd8d48988d1fa931735","name":"Hotel","pluralName":"Hotels","shortName":"Hotel","icon":{"prefix":"https://foursquare.com/img/categories_v2/travel/hotel_","suffix":".png"},"primary":true}],"verified":true,"stats":{"checkinsCount":42711,"usersCount":20731,"tipCount":269},"url":"http://blog.acehotel.com","likes":{"count":157,"groups":[{"type":"others","count":157,"items":[]}],"summary":"157 likes"},"like":false,"beenHere":{"count":2,"marked":false},"storeId":""}},"501841ede4b09f5054d7bfd1":{"sleep":23087,"quality":58,"mood":"Hungover","venue":{"id":"501841ede4b09f5054d7bfd1","name":"The Flatiron School","contact":{"phone":"3477297911","formattedPhone":"(347) 729-7911","twitter":"flatironschool"},"location":{"address":"11 Broadway Rm 260","crossStreet":"Morris Street","lat":40.705164343522625,"lng":-74.01398062705994,"postalCode":"10004","city":"New York","state":"NY","country":"United States","cc":"US"},"categories":[{"id":"4bf58dd8d48988d13b941735","name":"School","pluralName":"Schools","shortName":"School","icon":{"prefix":"https://foursquare.com/img/categories_v2/building/school_","suffix":".png"},"primary":true}],"verified":true,"stats":{"checkinsCount":735,"usersCount":206,"tipCount":3},"url":"http://www.flatironschool.com","likes":{"count":16,"groups":[{"type":"others","count":16,"items":[]}],"summary":"16 likes"},"like":false,"beenHere":{"count":84,"marked":false},"venuePage":{"id":"39165812"},"storeId":"260"}},"501f1fb7e4b0125d27de0a95":{"sleep":23272,"quality":59,"mood":"Tired","venue":{"id":"501f1fb7e4b0125d27de0a95","name":"The Mastroburgessio Penthouse","contact":{},"location":{"isFuzzed":true,"lat":40.716332549524296,"lng":-73.95361626406626,"city":"Brooklyn","state":"NY","country":"United States","cc":"US"},"categories":[{"id":"4bf58dd8d48988d103941735","name":"Home (private)","pluralName":"Homes (private)","shortName":"Home","icon":{"prefix":"https://foursquare.com/img/categories_v2/building/home_","suffix":".png"},"primary":true}],"verified":false,"stats":{"checkinsCount":460,"usersCount":21,"tipCount":1},"likes":{"count":0,"groups":[]},"like":false,"beenHere":{"count":287,"marked":false}}},"4a807ab1f964a52067f51fe3":{"sleep":30725,"quality":84,"mood":"Hungover","venue":{"id":"4a807ab1f964a52067f51fe3","name":"Chipotle Mexican Grill","contact":{"phone":"2123440941","formattedPhone":"(212) 344-0941","twitter":"chipotletweets"},"location":{"address":"2 Broadway","crossStreet":"Broadway between Beaver & Stone","lat":40.704053251221815,"lng":-74.01314542956707,"postalCode":"10004","city":"New York","state":"NY","country":"United States","cc":"US"},"categories":[{"id":"4bf58dd8d48988d1c1941735","name":"Mexican Restaurant","pluralName":"Mexican Restaurants","shortName":"Mexican","icon":{"prefix":"https://foursquare.com/img/categories_v2/food/mexican_","suffix":".png"},"primary":true}],"verified":true,"stats":{"checkinsCount":7400,"usersCount":2980,"tipCount":40},"url":"http://www.chipotle.com","likes":{"count":22,"groups":[{"type":"others","count":22,"items":[]}],"summary":"22 likes"},"like":false,"beenHere":{"count":1,"marked":false},"storeId":"476"}},"42829c80f964a5206a221fe3":{"sleep":13191,"quality":51,"mood":"Meh","venue":{"id":"42829c80f964a5206a221fe3","name":"Grand Central Terminal","contact":{"phone":"2125324900","formattedPhone":"(212) 532-4900","twitter":"grandcentralnyc"},"location":{"address":"87 E 42nd St","crossStreet":"btwn Vanderbilt & Park Ave","lat":40.75280620914171,"lng":-73.97717535495758,"postalCode":"10017","city":"New York","state":"NY","country":"United States","cc":"US"},"categories":[{"id":"4bf58dd8d48988d129951735","name":"Train Station","pluralName":"Train Stations","shortName":"Train Station","icon":{"prefix":"https://foursquare.com/img/categories_v2/travel/trainstation_","suffix":".png"},"primary":true}],"verified":true,"stats":{"checkinsCount":541702,"usersCount":134042,"tipCount":868},"url":"http://www.grandcentralterminal.com","likes":{"count":1014,"groups":[{"type":"others","count":1014,"items":[]}],"summary":"1014 likes"},"like":false,"menu":{"type":"Menu","label":"Menu","anchor":"See menu","url":"https://foursquare.com/v/grand-central-terminal/42829c80f964a5206a221fe3/menu","mobileUrl":"https://foursquare.com/v/42829c80f964a5206a221fe3/device_menu"},"beenHere":{"count":3,"marked":false},"storeId":""}},"5171b5cc011cef9833bbb787":{"sleep":13670,"quality":55,"mood":"Dragging","venue":{"id":"5171b5cc011cef9833bbb787","name":"Mulberry & Vine","contact":{"phone":"2127916300","formattedPhone":"(212) 791-6300","twitter":"mulberryandvine"},"location":{"address":"73 Warren St","crossStreet":"btwn W Broadway and Greenwich St.","lat":40.71507805968951,"lng":-74.0102469921112,"postalCode":"10007","city":"New York","state":"NY","country":"United States","cc":"US"},"categories":[{"id":"4bf58dd8d48988d16d941735","name":"Café","pluralName":"Cafés","shortName":"Café","icon":{"prefix":"https://foursquare.com/img/categories_v2/food/cafe_","suffix":".png"},"primary":true}],"verified":true,"stats":{"checkinsCount":757,"usersCount":328,"tipCount":13},"url":"https://www.facebook.com/mulberryandvine","likes":{"count":18,"groups":[{"type":"others","count":18,"items":[]}],"summary":"18 likes"},"like":false,"menu":{"type":"Menu","label":"Menu","anchor":"See menu","url":"https://foursquare.com/v/mulberry--vine/5171b5cc011cef9833bbb787/menu","mobileUrl":"https://foursquare.com/v/5171b5cc011cef9833bbb787/device_menu"},"beenHere":{"count":1,"marked":false},"venuePage":{"id":"55591598"}}},"4c34ebd5a0ced13ab8fe186e":{"sleep":24414,"quality":31,"mood":"Hungover","venue":{"id":"4c34ebd5a0ced13ab8fe186e","name":"Sunoco Gas Station","contact":{},"location":{"address":"Summit Avenue","crossStreet":"Communipaw Avenue","lat":40.75478102976454,"lng":-74.05570122636236,"city":"Jersey City","state":"NJ","country":"United States","cc":"US"},"categories":[{"id":"4bf58dd8d48988d113951735","name":"Gas Station / Garage","pluralName":"Gas Stations / Garages","shortName":"Gas Station / Garage","icon":{"prefix":"https://foursquare.com/img/categories_v2/shops/gas_","suffix":".png"},"primary":true}],"verified":false,"stats":{"checkinsCount":86,"usersCount":57,"tipCount":0},"likes":{"count":0,"groups":[]},"like":false,"beenHere":{"count":1,"marked":false}}},"4e7fbcf89adffe8cdf39cbdf":{"sleep":27006,"quality":68,"mood":"Awesome","venue":{"id":"4e7fbcf89adffe8cdf39cbdf","name":"Alliger's House Of Wings","contact":{"phone":"5708889805","formattedPhone":"(570) 888-9805"},"location":{"address":"201 Spring St","lat":41.99416,"lng":-76.521695,"postalCode":"18840","city":"Sayre","state":"PA","country":"United States","cc":"US"},"categories":[{"id":"4bf58dd8d48988d14c941735","name":"Wings Joint","pluralName":"Wings Joints","shortName":"Wings","icon":{"prefix":"https://foursquare.com/img/categories_v2/food/wings_","suffix":".png"},"primary":true}],"verified":false,"stats":{"checkinsCount":206,"usersCount":122,"tipCount":3},"url":"http://houseofwings.com","likes":{"count":2,"groups":[{"type":"others","count":2,"items":[{"id":"21929795","firstName":"Princess","lastName":"P.","gender":"female","photo":{"prefix":"https://irs1.4sqi.net/img/user/","suffix":"/TJTVRFSULVYS21LG.jpg"}},{"id":"59170181","firstName":"William","lastName":"L.","gender":"male","photo":{"prefix":"https://irs0.4sqi.net/img/user/","suffix":"/blank_boy.png"}}]}],"summary":"Princess Pui Pui & William Lusk"},"like":false,"menu":{"type":"Menu","label":"Menu","anchor":"See menu","url":"https://foursquare.com/v/alligers-house-of-wings/4e7fbcf89adffe8cdf39cbdf/menu","mobileUrl":"https://foursquare.com/v/4e7fbcf89adffe8cdf39cbdf/device_menu"},"beenHere":{"count":1,"marked":false}}},"4c2fe52216adc928956abe9c":{"sleep":14794,"quality":98,"mood":"Dragging","venue":{"id":"4c2fe52216adc928956abe9c","name":"Yellow Goose (Sunoco)","contact":{"phone":"7164922068","formattedPhone":"(716) 492-2068"},"location":{"address":"7 N Main St","lat":42.4952711,"lng":-78.48014276666666,"postalCode":"14042","city":"Delevan","state":"NY","country":"United States","cc":"US"},"categories":[{"id":"4bf58dd8d48988d113951735","name":"Gas Station / Garage","pluralName":"Gas Stations / Garages","shortName":"Gas Station / Garage","icon":{"prefix":"https://foursquare.com/img/categories_v2/shops/gas_","suffix":".png"},"primary":true}],"verified":false,"stats":{"checkinsCount":189,"usersCount":41,"tipCount":0},"likes":{"count":0,"groups":[]},"like":false,"beenHere":{"count":1,"marked":false}}},"4b75a7f7f964a520ab1a2ee3":{"sleep":12770,"quality":97,"mood":"Energized","venue":{"id":"4b75a7f7f964a520ab1a2ee3","name":"Niagara Falls (American Side)","contact":{"phone":"7162781796","formattedPhone":"(716) 278-1796"},"location":{"address":"Niagara Falls State Park","lat":43.08597173315705,"lng":-79.06873226165771,"postalCode":"14303","city":"Niagara Falls","state":"NY","country":"United States","cc":"US"},"categories":[{"id":"4bf58dd8d48988d165941735","name":"Scenic Lookout","pluralName":"Scenic Lookouts","shortName":"Scenic Lookout","icon":{"prefix":"https://foursquare.com/img/categories_v2/parks_outdoors/sceniclookout_","suffix":".png"},"primary":true}],"verified":false,"stats":{"checkinsCount":8740,"usersCount":7441,"tipCount":56},"likes":{"count":66,"groups":[{"type":"others","count":66,"items":[]}],"summary":"66 likes"},"like":false,"beenHere":{"count":1,"marked":false}}}}